1494650697.30114603,$GPRMC,044414.00,A,3110.67508,N,12123.90009,E,0.447,,130517,,,A*7B

1494650698.29502964,$GPRMC,044415.00,A,3110.67609,N,12123.90004,E,0.424,,130517,,,A*70

1494650699.29798102,$GPRMC,044416.00,A,3110.67681,N,12123.89984,E,0.107,,130517,,,A*7E

1494650700.29388618,$GPRMC,044417.00,A,3110.67664,N,12123.89985,E,0.039,,130517,,,A*79

1494650701.29700446,$GPRMC,044418.00,A,3110.67675,N,12123.89976,E,0.095,,130517,,,A*7C

1494650702.29600382,$GPRMC,044419.00,A,3110.67673,N,12123.89960,E,0.019,,130517,,,A*78

1494650703.29636645,$GPRMC,044420.00,A,3110.67669,N,12123.89955,E,0.032,,130517,,,A*76

1494650704.29370141,$GPRMC,044421.00,A,3110.67682,N,12123.89950,E,0.037,,130517,,,A*72

1494650705.29198027,$GPRMC,044422.00,A,3110.67699,N,12123.89940,E,0.310,,130517,,,A*7C

1494650706.29160547,$GPRMC,044423.00,A,3110.67710,N,12123.89940,E,0.041,,130517,,,A*7A

1494650707.29526043,$GPRMC,044424.00,A,3110.67713,N,12123.89948,E,0.055,,130517,,,A*73

1494650708.29413199,$GPRMC,044425.00,A,3110.67714,N,12123.89960,E,0.058,,130517,,,A*72

1494650709.29564023,$GPRMC,044426.00,A,3110.67722,N,12123.89965,E,0.033,,130517,,,A*7C

1494650710.29518795,$GPRMC,044427.00,A,3110.67723,N,12123.89975,E,0.025,,130517,,,A*7A

1494650711.29710984,$GPRMC,044428.00,A,3110.67738,N,12123.89958,E,0.023,,130517,,,A*76

1494650712.29387975,$GPRMC,044429.00,A,3110.67749,N,12123.89948,E,0.037,,130517,,,A*75

1494650713.2957871,$GPRMC,044430.00,A,3110.67761,N,12123.89945,E,0.106,,130517,,,A*79

1494650714.29525566,$GPRMC,044431.00,A,3110.67779,N,12123.89929,E,0.131,,130517,,,A*7F

1494650715.29618382,$GPRMC,044432.00,A,3110.67817,N,12123.89871,E,0.149,,130517,,,A*78

1494650716.29543376,$GPRMC,044433.00,A,3110.67864,N,12123.89793,E,0.062,,130517,,,A*76

1494650717.29540586,$GPRMC,044434.00,A,3110.67901,N,12123.89730,E,0.063,,130517,,,A*7B

1494650718.29556298,$GPRMC,044435.00,A,3110.67931,N,12123.89683,E,0.033,,130517,,,A*75

1494650719.29620719,$GPRMC,044436.00,A,3110.67950,N,12123.89654,E,0.030,,130517,,,A*78

1494650720.29585171,$GPRMC,044437.00,A,3110.67962,N,12123.89634,E,0.029,,130517,,,A*76

1494650721.29878163,$GPRMC,044438.00,A,3110.67971,N,12123.89620,E,0.012,,130517,,,A*76

1494650722.29362345,$GPRMC,044439.00,A,3110.67976,N,12123.89611,E,0.029,,130517,,,A*7A

1494650723.29612017,$GPRMC,044440.00,A,3110.67978,N,12123.89607,E,0.014,,130517,,,A*73

1494650724.29581904,$GPRMC,044441.00,A,3110.67979,N,12123.89606,E,0.043,,130517,,,A*70

1494650725.29347038,$GPRMC,044442.00,A,3110.67976,N,12123.89611,E,0.027,,130517,,,A*78

1494650726.29305077,$GPRMC,044443.00,A,3110.67976,N,12123.89618,E,0.105,,130517,,,A*71

1494650727.29664087,$GPRMC,044444.00,A,3110.67974,N,12123.89628,E,0.025,,130517,,,A*74

1494650728.29381824,$GPRMC,044445.00,A,3110.67971,N,12123.89642,E,0.040,,130517,,,A*7F

1494650729.29639626,$GPRMC,044446.00,A,3110.67965,N,12123.89659,E,0.032,,130517,,,A*76

1494650730.29285455,$GPRMC,044447.00,A,3110.67964,N,12123.89664,E,0.028,,130517,,,A*73

1494650731.2932632,$GPRMC,044448.00,A,3110.67964,N,12123.89672,E,0.049,,130517,,,A*7C

1494650732.29431081,$GPRMC,044449.00,A,3110.67963,N,12123.89681,E,0.051,,130517,,,A*7F

1494650733.29350924,$GPRMC,044450.00,A,3110.67958,N,12123.89694,E,0.080,,130517,,,A*77

1494650734.29278612,$GPRMC,044451.00,A,3110.67954,N,12123.89706,E,0.032,,130517,,,A*79

1494650735.29344583,$GPRMC,044452.00,A,3110.67949,N,12123.89720,E,0.049,,130517,,,A*7E

1494650736.29250026,$GPRMC,044453.00,A,3110.67942,N,12123.89736,E,0.036,,130517,,,A*7B

1494650737.29506469,$GPRMC,044454.00,A,3110.67934,N,12123.89764,E,0.111,,130517,,,A*7E

1494650738.29860878,$GPRMC,044455.00,A,3110.67922,N,12123.89794,E,0.093,,130517,,,A*7C

1494650739.29566002,$GPRMC,044456.00,A,3110.67908,N,12123.89826,E,0.007,,130517,,,A*7C

1494650740.29384804,$GPRMC,044457.00,A,3110.67893,N,12123.89867,E,0.020,,130517,,,A*7E

1494650741.29537535,$GPRMC,044458.00,A,3110.67879,N,12123.89899,E,0.105,,130517,,,A*72

1494650742.29519558,$GPRMC,044459.00,A,3110.67867,N,12123.89930,E,0.012,,130517,,,A*79

1494650743.29363871,$GPRMC,044500.00,A,3110.67864,N,12123.89942,E,0.020,,130517,,,A*73

1494650744.29348779,$GPRMC,044501.00,A,3110.67862,N,12123.89966,E,0.018,,130517,,,A*79

1494650745.29379511,$GPRMC,044502.00,A,3110.67857,N,12123.89985,E,0.027,,130517,,,A*7D

1494650746.30306482,$GPRMC,044503.00,A,3110.67858,N,12123.89995,E,0.045,,130517,,,A*76

1494650747.30009031,$GPRMC,044504.00,A,3110.67851,N,12123.89946,E,0.058,,130517,,,A*7A

1494650748.29662085,$GPRMC,044505.00,A,3110.67845,N,12123.89898,E,0.036,,130517,,,A*74

1494650749.29687142,$GPRMC,044506.00,A,3110.67838,N,12123.89848,E,0.006,,130517,,,A*73

1494650750.29801679,$GPRMC,044507.00,A,3110.67835,N,12123.89812,E,0.011,,130517,,,A*76

1494650751.29799294,$GPRMC,044508.00,A,3110.67833,N,12123.89791,E,0.050,,130517,,,A*7E

1494650752.29608226,$GPRMC,044509.00,A,3110.67832,N,12123.89772,E,0.098,,130517,,,A*77

1494650753.29774117,$GPRMC,044510.00,A,3110.67832,N,12123.89760,E,0.014,,130517,,,A*78

1494650754.29663992,$GPRMC,044511.00,A,3110.67832,N,12123.89747,E,0.055,,130517,,,A*79

1494650755.30206251,$GPRMC,044512.00,A,3110.67827,N,12123.89738,E,0.007,,130517,,,A*71

1494650756.29562354,$GPRMC,044513.00,A,3110.67820,N,12123.89731,E,0.094,,130517,,,A*74

1494650757.29804277,$GPRMC,044514.00,A,3110.67813,N,12123.89727,E,0.021,,130517,,,A*7A

1494650758.29879951,$GPRMC,044515.00,A,3110.67807,N,12123.89722,E,0.042,,130517,,,A*7E

1494650759.30168653,$GPRMC,044516.00,A,3110.67802,N,12123.89714,E,0.011,,130517,,,A*7B

1494650760.29641867,$GPRMC,044517.00,A,3110.67798,N,12123.89707,E,0.044,,130517,,,A*74

1494650761.29672742,$GPRMC,044518.00,A,3110.67793,N,12123.89695,E,0.020,,130517,,,A*78

1494650762.29724646,$GPRMC,044519.00,A,3110.67793,N,12123.89682,E,0.016,,130517,,,A*7A

1494650763.29730964,$GPRMC,044520.00,A,3110.67792,N,12123.89673,E,0.031,,130517,,,A*7A

1494650764.29695725,$GPRMC,044521.00,A,3110.67791,N,12123.89664,E,0.062,,130517,,,A*78

1494650765.29651189,$GPRMC,044522.00,A,3110.67796,N,12123.89653,E,0.135,,130517,,,A*7B

1494650766.29627681,$GPRMC,044523.00,A,3110.67799,N,12123.89646,E,0.052,,130517,,,A*71

1494650767.29777002,$GPRMC,044524.00,A,3110.67798,N,12123.89641,E,0.395,318.67,130517,,,A*6D

1494650768.29753017,$GPRMC,044525.00,A,3110.67792,N,12123.89639,E,0.010,,130517,,,A*72

1494650769.29382229,$GPRMC,044526.00,A,3110.67780,N,12123.89635,E,0.219,,130517,,,A*75

1494650770.2965939,$GPRMC,044527.00,A,3110.67834,N,12123.89641,E,0.198,,130517,,,A*7D

1494650771.29623294,$GPRMC,044528.00,A,3110.67870,N,12123.89629,E,0.601,,130517,,,A*7B

1494650773.72344851,$GPRMC,044529.00,A,3110.67939,N,12123.89619,E,2.204,321.07,130517,,,A*6F

1494650773.72349524,$GPRMC,044530.00,A,3110.68047,N,12123.89627,E,4.567,332.55,130517,,,A*64

1494650774.29542017,$GPRMC,044531.00,A,3110.68252,N,12123.89600,E,8.252,340.16,130517,,,A*69

1494650775.29279017,$GPRMC,044532.00,A,3110.68455,N,12123.89524,E,7.332,339.65,130517,,,A*6C

1494650776.29371214,$GPRMC,044533.00,A,3110.68715,N,12123.89473,E,11.020,341.72,130517,,,A*57

1494650777.29320884,$GPRMC,044534.00,A,3110.69029,N,12123.89410,E,12.436,342.73,130517,,,A*5E

1494650778.29844618,$GPRMC,044535.00,A,3110.69415,N,12123.89316,E,13.062,344.73,130517,,,A*57

1494650779.29714942,$GPRMC,044536.00,A,3110.69745,N,12123.89251,E,10.725,345.62,130517,,,A*56

1494650780.29570842,$GPRMC,044537.00,A,3110.70003,N,12123.89110,E,10.791,339.92,130517,,,A*57

1494650781.2961998,$GPRMC,044538.00,A,3110.70230,N,12123.89056,E,10.756,340.76,130517,,,A*56

1494650782.29347563,$GPRMC,044539.00,A,3110.70552,N,12123.88978,E,12.254,343.05,130517,,,A*52

1494650783.29628062,$GPRMC,044540.00,A,3110.70883,N,12123.88882,E,11.925,343.56,130517,,,A*51

1494650784.29635787,$GPRMC,044541.00,A,3110.71181,N,12123.88787,E,10.981,343.60,130517,,,A*5A

1494650785.29654884,$GPRMC,044542.00,A,3110.71479,N,12123.88689,E,10.651,344.44,130517,,,A*57

1494650786.29625654,$GPRMC,044543.00,A,3110.71802,N,12123.88654,E,9.088,343.50,130517,,,A*6E

1494650787.30099869,$GPRMC,044544.00,A,3110.72075,N,12123.88600,E,7.622,340.28,130517,,,A*67

1494650788.30019069,$GPRMC,044545.00,A,3110.72290,N,12123.88550,E,6.331,336.96,130517,,,A*6B

1494650789.29745412,$GPRMC,044546.00,A,3110.72415,N,12123.88544,E,4.962,334.20,130517,,,A*67

1494650790.29651856,$GPRMC,044547.00,A,3110.72500,N,12123.88380,E,5.201,331.29,130517,,,A*6E

1494650791.29759574,$GPRMC,044548.00,A,3110.72553,N,12123.88175,E,5.859,327.52,130517,,,A*63

1494650792.29644895,$GPRMC,044549.00,A,3110.72672,N,12123.87970,E,5.977,325.27,130517,,,A*6D

1494650793.29470491,$GPRMC,044550.00,A,3110.72697,N,12123.87699,E,8.637,312.76,130517,,,A*60

1494650794.29627252,$GPRMC,044551.00,A,3110.72655,N,12123.87407,E,7.915,304.27,130517,,,A*69

1494650795.29771757,$GPRMC,044552.00,A,3110.72570,N,12123.87147,E,7.970,295.67,130517,,,A*61

1494650796.29682064,$GPRMC,044553.00,A,3110.72496,N,12123.86872,E,8.606,288.00,130517,,,A*6B

1494650797.30002809,$GPRMC,044554.00,A,3110.72448,N,12123.86627,E,7.328,284.98,130517,,,A*6A

1494650798.29584503,$GPRMC,044555.00,A,3110.72322,N,12123.86364,E,6.950,281.15,130517,,,A*66

1494650799.29741216,$GPRMC,044556.00,A,3110.72226,N,12123.86196,E,7.376,280.25,130517,,,A*62

1494650800.2965982,$GPRMC,044557.00,A,3110.72125,N,12123.85988,E,7.346,279.84,130517,,,A*69

1494650801.29872632,$GPRMC,044558.00,A,3110.72083,N,12123.85749,E,6.352,278.39,130517,,,A*6B

1494650802.29887366,$GPRMC,044559.00,A,3110.72049,N,12123.85530,E,5.948,276.72,130517,,,A*63

1494650803.30032396,$GPRMC,044600.00,A,3110.72018,N,12123.85290,E,6.471,275.64,130517,,,A*65

1494650804.29942369,$GPRMC,044601.00,A,3110.71964,N,12123.85050,E,6.526,274.39,130517,,,A*61

1494650805.29656053,$GPRMC,044602.00,A,3110.71894,N,12123.84759,E,6.534,271.49,130517,,,A*62

1494650806.30582142,$GPRMC,044603.00,A,3110.71813,N,12123.84443,E,7.349,267.54,130517,,,A*62

1494650807.29887009,$GPRMC,044604.00,A,3110.71786,N,12123.84157,E,8.459,267.24,130517,,,A*68

1494650808.29650068,$GPRMC,044605.00,A,3110.71741,N,12123.83863,E,8.320,266.72,130517,,,A*60

1494650809.29858661,$GPRMC,044606.00,A,3110.71648,N,12123.83533,E,8.523,263.55,130517,,,A*66

1494650810.29648399,$GPRMC,044607.00,A,3110.71575,N,12123.83227,E,8.360,262.00,130517,,,A*68

1494650811.29774046,$GPRMC,044608.00,A,3110.71495,N,12123.82935,E,8.003,260.72,130517,,,A*60

1494650812.29388285,$GPRMC,044609.00,A,3110.71494,N,12123.82674,E,6.663,262.31,130517,,,A*61

1494650813.29579091,$GPRMC,044610.00,A,3110.71508,N,12123.82433,E,5.420,262.74,130517,,,A*6B

1494650814.29435468,$GPRMC,044611.00,A,3110.71420,N,12123.82206,E,6.611,258.57,130517,,,A*6A

1494650815.29682517,$GPRMC,044612.00,A,3110.71408,N,12123.82021,E,4.271,,130517,,,A*77

1494650816.29546571,$GPRMC,044613.00,A,3110.71427,N,12123.81848,E,5.089,260.11,130517,,,A*61

1494650817.29636216,$GPRMC,044614.00,A,3110.71389,N,12123.81683,E,4.237,,130517,,,A*70

1494650818.2972846,$GPRMC,044615.00,A,3110.71347,N,12123.81577,E,2.747,,130517,,,A*7F

1494650819.30060983,$GPRMC,044616.00,A,3110.71287,N,12123.81434,E,3.725,,130517,,,A*72

1494650820.29652119,$GPRMC,044617.00,A,3110.71308,N,12123.81287,E,3.666,,130517,,,A*7D

1494650821.29659772,$GPRMC,044618.00,A,3110.71269,N,12123.81150,E,3.289,,130517,,,A*78

1494650822.29566002,$GPRMC,044619.00,A,3110.71230,N,12123.81064,E,2.682,,130517,,,A*7D

1494650823.29762244,$GPRMC,044620.00,A,3110.71124,N,12123.80997,E,2.110,,130517,,,A*79

1494650824.29781914,$GPRMC,044621.00,A,3110.71048,N,12123.80960,E,1.319,,130517,,,A*73

1494650825.29365635,$GPRMC,044622.00,A,3110.70942,N,12123.81024,E,0.487,,130517,,,A*7B

1494650826.29718089,$GPRMC,044623.00,A,3110.70776,N,12123.81092,E,0.535,,130517,,,A*76

1494650827.30043483,$GPRMC,044624.00,A,3110.70667,N,12123.81139,E,0.104,,130517,,,A*76

1494650828.30026007,$GPRMC,044625.00,A,3110.70612,N,12123.81167,E,0.016,,130517,,,A*7C

1494650829.29635072,$GPRMC,044626.00,A,3110.70564,N,12123.81176,E,0.058,,130517,,,A*77

1494650830.29689288,$GPRMC,044627.00,A,3110.70502,N,12123.81219,E,0.042,,130517,,,A*77

1494650831.29652953,$GPRMC,044628.00,A,3110.70452,N,12123.81256,E,0.112,,130517,,,A*73

1494650832.30043077,$GPRMC,044629.00,A,3110.70336,N,12123.81312,E,0.058,,130517,,,A*79

1494650833.29802036,$GPRMC,044630.00,A,3110.70264,N,12123.81350,E,0.181,,130517,,,A*74

1494650834.30155993,$GPRMC,044631.00,A,3110.70215,N,12123.81352,E,0.201,,130517,,,A*7A

1494650835.29857206,$GPRMC,044632.00,A,3110.70174,N,12123.81377,E,0.151,,130517,,,A*7C

1494650836.29860663,$GPRMC,044633.00,A,3110.70159,N,12123.81394,E,0.183,,130517,,,A*70

1494650837.29843736,$GPRMC,044634.00,A,3110.70144,N,12123.81407,E,0.251,,130517,,,A*7A

1494650838.2990706,$GPRMC,044635.00,A,3110.70117,N,12123.81421,E,0.144,,130517,,,A*7E

1494650839.29758501,$GPRMC,044636.00,A,3110.70065,N,12123.81462,E,0.146,,130517,,,A*7C

1494650840.2965827,$GPRMC,044637.00,A,3110.70012,N,12123.81504,E,0.208,,130517,,,A*75

1494650841.30059981,$GPRMC,044638.00,A,3110.69937,N,12123.81558,E,0.128,,130517,,,A*74

1494650842.3007226,$GPRMC,044639.00,A,3110.69920,N,12123.81555,E,0.046,,130517,,,A*77

1494650843.30008459,$GPRMC,044640.00,A,3110.69902,N,12123.81538,E,0.298,,130517,,,A*73

1494650844.29820061,$GPRMC,044641.00,A,3110.69929,N,12123.81488,E,0.081,,130517,,,A*7B

1494650845.29723048,$GPRMC,044642.00,A,3110.69906,N,12123.81474,E,0.038,,130517,,,A*74

1494650846.29677224,$GPRMC,044643.00,A,3110.69871,N,12123.81463,E,0.086,,130517,,,A*77

1494650847.2995863,$GPRMC,044644.00,A,3110.69810,N,12123.81454,E,0.381,,130517,,,A*77

1494650848.2976532,$GPRMC,044645.00,A,3110.69769,N,12123.81449,E,0.435,,130517,,,A*73

1494650849.29721689,$GPRMC,044646.00,A,3110.69721,N,12123.81444,E,0.177,,130517,,,A*72

1494650850.29745698,$GPRMC,044647.00,A,3110.69668,N,12123.81443,E,0.052,,130517,,,A*7E

1494650851.30068922,$GPRMC,044648.00,A,3110.69673,N,12123.81435,E,0.139,,130517,,,A*76

1494650852.2976613,$GPRMC,044649.00,A,3110.69635,N,12123.81440,E,0.300,,130517,,,A*7F

1494650853.29673338,$GPRMC,044650.00,A,3110.69573,N,12123.81441,E,0.113,,130517,,,A*77

1494650854.29747677,$GPRMC,044651.00,A,3110.69570,N,12123.81428,E,0.075,,130517,,,A*7B

1494650855.30123234,$GPRMC,044652.00,A,3110.69524,N,12123.81431,E,0.124,,130517,,,A*74

1494650856.29984236,$GPRMC,044653.00,A,3110.69492,N,12123.81438,E,0.117,,130517,,,A*70

1494650857.29811883,$GPRMC,044654.00,A,3110.69462,N,12123.81448,E,0.021,,130517,,,A*7B

1494650858.29663777,$GPRMC,044655.00,A,3110.69427,N,12123.81460,E,0.125,,130517,,,A*74

1494650859.297544,$GPRMC,044656.00,A,3110.69419,N,12123.81450,E,0.037,,130517,,,A*7B

1494650860.29720569,$GPRMC,044657.00,A,3110.69414,N,12123.81439,E,0.040,,130517,,,A*78

1494650861.29929233,$GPRMC,044658.00,A,3110.69470,N,12123.81389,E,0.156,,130517,,,A*7F

1494650862.29692411,$GPRMC,044659.00,A,3110.69512,N,12123.81335,E,0.082,,130517,,,A*74

1494650863.29710174,$GPRMC,044700.00,A,3110.69534,N,12123.81303,E,0.013,,130517,,,A*70

1494650864.2967062,$GPRMC,044701.00,A,3110.69525,N,12123.81276,E,0.079,,130517,,,A*7E

1494650865.29756355,$GPRMC,044702.00,A,3110.69536,N,12123.81266,E,0.038,,130517,,,A*7B

1494650866.30438185,$GPRMC,044703.00,A,3110.69561,N,12123.81259,E,0.029,,130517,,,A*74

1494650867.30050445,$GPRMC,044704.00,A,3110.69581,N,12123.81252,E,0.283,,130517,,,A*74

1494650868.29790449,$GPRMC,044705.00,A,3110.69601,N,12123.81244,E,0.069,,130517,,,A*7F

1494650869.29624701,$GPRMC,044706.00,A,3110.69620,N,12123.81243,E,0.081,,130517,,,A*7E

1494650870.29604101,$GPRMC,044707.00,A,3110.69637,N,12123.81244,E,0.021,,130517,,,A*74

1494650871.29738069,$GPRMC,044708.00,A,3110.69656,N,12123.81243,E,0.066,,130517,,,A*78

1494650872.2960999,$GPRMC,044709.00,A,3110.69679,N,12123.81245,E,0.048,,130517,,,A*7E

1494650873.30039477,$GPRMC,044710.00,A,3110.69684,N,12123.81250,E,0.197,,130517,,,A*73

1494650874.29636312,$GPRMC,044711.00,A,3110.69683,N,12123.81260,E,0.153,,130517,,,A*7E

1494650875.29735303,$GPRMC,044712.00,A,3110.69686,N,12123.81270,E,0.039,,130517,,,A*74

1494650876.29561424,$GPRMC,044713.00,A,3110.69690,N,12123.81279,E,0.174,,130517,,,A*73

1494650877.29733014,$GPRMC,044714.00,A,3110.69698,N,12123.81288,E,0.273,,130517,,,A*76

1494650878.29453683,$GPRMC,044715.00,A,3110.69700,N,12123.81306,E,0.116,,130517,,,A*70

1494650879.29804277,$GPRMC,044716.00,A,3110.69713,N,12123.81306,E,0.003,,130517,,,A*74

1494650880.29687142,$GPRMC,044717.00,A,3110.69725,N,12123.81304,E,0.025,,130517,,,A*76

1494650881.29751396,$GPRMC,044718.00,A,3110.69736,N,12123.81309,E,0.139,,130517,,,A*7A

1494650882.29826307,$GPRMC,044719.00,A,3110.69753,N,12123.81309,E,0.010,,130517,,,A*72

1494650883.2969656,$GPRMC,044720.00,A,3110.69765,N,12123.81309,E,0.079,,130517,,,A*72

1494650884.29846859,$GPRMC,044721.00,A,3110.69813,N,12123.81287,E,0.008,,130517,,,A*7C

1494650885.29670334,$GPRMC,044722.00,A,3110.69848,N,12123.81287,E,0.072,,130517,,,A*7C

1494650886.29725933,$GPRMC,044723.00,A,3110.69894,N,12123.81267,E,0.039,,130517,,,A*7D

1494650887.29805255,$GPRMC,044724.00,A,3110.69987,N,12123.81250,E,0.062,,130517,,,A*73

1494650888.29724073,$GPRMC,044725.00,A,3110.70000,N,12123.81245,E,0.019,,130517,,,A*74

1494650889.29713845,$GPRMC,044726.00,A,3110.70013,N,12123.81232,E,0.064,,130517,,,A*7F

1494650890.30020118,$GPRMC,044727.00,A,3110.70040,N,12123.81220,E,0.155,,130517,,,A*78

1494650891.29568791,$GPRMC,044728.00,A,3110.70067,N,12123.81234,E,0.384,,130517,,,A*79

1494650892.29431152,$GPRMC,044729.00,A,3110.70115,N,12123.81234,E,0.519,,130517,,,A*7E

1494650893.29847741,$GPRMC,044730.00,A,3110.70160,N,12123.81226,E,1.149,,130517,,,A*77

1494650894.29714203,$GPRMC,044731.00,A,3110.70153,N,12123.81140,E,1.874,,130517,,,A*72

1494650895.29921412,$GPRMC,044732.00,A,3110.70121,N,12123.81088,E,1.958,,130517,,,A*7E

1494650896.29696846,$GPRMC,044733.00,A,3110.70074,N,12123.81009,E,2.529,,130517,,,A*7E

1494650897.2987895,$GPRMC,044734.00,A,3110.70102,N,12123.80874,E,4.530,265.22,130517,,,A*6B

1494650898.29816294,$GPRMC,044735.00,A,3110.70019,N,12123.80771,E,5.471,268.49,130517,,,A*6E

1494650899.29820848,$GPRMC,044736.00,A,3110.69978,N,12123.80594,E,4.725,268.77,130517,,,A*6C

1494650900.29986596,$GPRMC,044737.00,A,3110.69975,N,12123.80480,E,1.548,,130517,,,A*7A

1494650901.29671597,$GPRMC,044738.00,A,3110.69968,N,12123.80394,E,3.846,250.91,130517,,,A*6B

1494650902.29691792,$GPRMC,044739.00,A,3110.69927,N,12123.80384,E,2.065,,130517,,,A*79

1494650903.29653001,$GPRMC,044740.00,A,3110.69870,N,12123.80351,E,2.408,244.67,130517,,,A*6E

1494650904.30190659,$GPRMC,044741.00,A,3110.69810,N,12123.80360,E,2.589,237.23,130517,,,A*67

1494650905.30133796,$GPRMC,044742.00,A,3110.69715,N,12123.80361,E,3.324,225.66,130517,,,A*6D

1494650906.29929018,$GPRMC,044743.00,A,3110.69645,N,12123.80343,E,3.221,217.39,130517,,,A*67

1494650907.30144691,$GPRMC,044744.00,A,3110.69595,N,12123.80334,E,3.145,210.46,130517,,,A*60

1494650908.30010986,$GPRMC,044745.00,A,3110.69527,N,12123.80339,E,3.375,203.31,130517,,,A*66

1494650909.30241418,$GPRMC,044746.00,A,3110.69448,N,12123.80335,E,3.688,195.77,130517,,,A*68

1494650910.30176592,$GPRMC,044747.00,A,3110.69440,N,12123.80316,E,3.405,190.88,130517,,,A*62

1494650911.30071402,$GPRMC,044748.00,A,3110.69331,N,12123.80331,E,3.638,187.02,130517,,,A*61

1494650912.29901505,$GPRMC,044749.00,A,3110.69277,N,12123.80325,E,3.229,184.56,130517,,,A*60

1494650913.29926991,$GPRMC,044750.00,A,3110.69179,N,12123.80344,E,3.340,182.39,130517,,,A*63

1494650914.30030847,$GPRMC,044751.00,A,3110.69100,N,12123.80362,E,3.032,181.14,130517,,,A*62

1494650915.30145049,$GPRMC,044752.00,A,3110.69018,N,12123.80399,E,2.803,179.67,130517,,,A*65

1494650916.29821777,$GPRMC,044753.00,A,3110.68830,N,12123.80378,E,3.965,180.11,130517,,,A*6F

1494650917.29940867,$GPRMC,044754.00,A,3110.68684,N,12123.80400,E,3.870,179.44,130517,,,A*62

1494650918.30030322,$GPRMC,044755.00,A,3110.68524,N,12123.80428,E,3.894,178.20,130517,,,A*69

1494650919.30009365,$GPRMC,044756.00,A,3110.68390,N,12123.80440,E,3.654,177.75,130517,,,A*60

1494650920.30107594,$GPRMC,044757.00,A,3110.68244,N,12123.80463,E,3.439,177.21,130517,,,A*60

1494650921.29969215,$GPRMC,044758.00,A,3110.68114,N,12123.80498,E,3.415,176.29,130517,,,A*6A

1494650922.29909277,$GPRMC,044759.00,A,3110.67995,N,12123.80515,E,3.309,175.71,130517,,,A*65

1494650923.30171537,$GPRMC,044800.00,A,3110.67873,N,12123.80516,E,3.182,175.43,130517,,,A*6C

1494650924.30093408,$GPRMC,044801.00,A,3110.67707,N,12123.80541,E,3.529,174.60,130517,,,A*66

1494650925.30177712,$GPRMC,044802.00,A,3110.67535,N,12123.80495,E,3.233,174.76,130517,,,A*65

1494650926.30577254,$GPRMC,044803.00,A,3110.67399,N,12123.80521,E,3.336,174.60,130517,,,A*69

1494650927.30170226,$GPRMC,044804.00,A,3110.67231,N,12123.80497,E,3.579,174.78,130517,,,A*65

1494650928.29893255,$GPRMC,044805.00,A,3110.67098,N,12123.80498,E,3.462,174.74,130517,,,A*6D

1494650929.29932356,$GPRMC,044806.00,A,3110.66953,N,12123.80492,E,3.404,174.62,130517,,,A*6C

1494650930.29715943,$GPRMC,044807.00,A,3110.66817,N,12123.80487,E,3.466,174.61,130517,,,A*6F

1494650931.29672551,$GPRMC,044808.00,A,3110.66706,N,12123.80487,E,3.149,174.69,130517,,,A*6F

1494650932.30215669,$GPRMC,044809.00,A,3110.66549,N,12123.80409,E,3.200,175.15,130517,,,A*65

1494650933.30136442,$GPRMC,044810.00,A,3110.66443,N,12123.80388,E,3.046,175.76,130517,,,A*6D

1494650934.30270338,$GPRMC,044811.00,A,3110.66218,N,12123.80337,E,3.531,176.10,130517,,,A*66

1494650935.30320859,$GPRMC,044812.00,A,3110.66061,N,12123.80363,E,3.741,175.68,130517,,,A*61

1494650936.3020277,$GPRMC,044813.00,A,3110.65929,N,12123.80376,E,3.793,175.27,130517,,,A*66

1494650937.3020072,$GPRMC,044814.00,A,3110.65804,N,12123.80394,E,3.906,174.84,130517,,,A*69

1494650938.30050993,$GPRMC,044815.00,A,3110.65686,N,12123.80423,E,3.889,173.76,130517,,,A*6B

1494650939.29961205,$GPRMC,044816.00,A,3110.65555,N,12123.80439,E,4.047,172.57,130517,,,A*61

1494650940.3023932,$GPRMC,044817.00,A,3110.65438,N,12123.80440,E,4.021,171.81,130517,,,A*6C

1494650941.30049706,$GPRMC,044818.00,A,3110.65348,N,12123.80488,E,3.839,170.99,130517,,,A*69

1494650942.30185223,$GPRMC,044819.00,A,3110.65258,N,12123.80529,E,3.363,170.28,130517,,,A*6C

1494650943.30128813,$GPRMC,044820.00,A,3110.65154,N,12123.80575,E,3.380,169.79,130517,,,A*61

1494650944.29929018,$GPRMC,044821.00,A,3110.65069,N,12123.80625,E,3.136,169.77,130517,,,A*68

1494650945.30026317,$GPRMC,044822.00,A,3110.64972,N,12123.80700,E,3.299,169.55,130517,,,A*69

1494650947.79111576,$GPRMC,044823.00,A,3110.64864,N,12123.80711,E,3.316,169.98,130517,,,A*69

1494650947.79115152,$GPRMC,044824.00,A,3110.64762,N,12123.80762,E,3.411,170.34,130517,,,A*6D

1494650948.29883313,$GPRMC,044825.00,A,3110.64668,N,12123.80888,E,3.519,169.67,130517,,,A*6B

1494650949.30175066,$GPRMC,044826.00,A,3110.64579,N,12123.80987,E,3.524,168.86,130517,,,A*65

1494650950.30209661,$GPRMC,044827.00,A,3110.64462,N,12123.81097,E,3.459,168.31,130517,,,A*61

1494650951.30177975,$GPRMC,044828.00,A,3110.64318,N,12123.81194,E,3.410,168.04,130517,,,A*6D

1494650952.29923964,$GPRMC,044829.00,A,3110.64215,N,12123.81255,E,3.589,167.98,130517,,,A*65

1494650953.30205154,$GPRMC,044830.00,A,3110.64124,N,12123.81279,E,3.363,168.26,130517,,,A*6A

1494650954.3009758,$GPRMC,044831.00,A,3110.64015,N,12123.81328,E,3.401,168.20,130517,,,A*68

1494650955.30274701,$GPRMC,044832.00,A,3110.63924,N,12123.81368,E,3.414,168.86,130517,,,A*6B

1494650956.30214906,$GPRMC,044833.00,A,3110.63819,N,12123.81426,E,3.379,169.02,130517,,,A*69

1494650957.30162024,$GPRMC,044834.00,A,3110.63694,N,12123.81501,E,3.273,168.68,130517,,,A*67

1494650958.30042171,$GPRMC,044835.00,A,3110.63582,N,12123.81541,E,3.242,168.43,130517,,,A*6D

1494650959.30160379,$GPRMC,044836.00,A,3110.63445,N,12123.81579,E,3.240,168.32,130517,,,A*6B

1494650960.30117607,$GPRMC,044837.00,A,3110.63370,N,12123.81617,E,2.896,168.49,130517,,,A*6C

1494650961.30197287,$GPRMC,044838.00,A,3110.63234,N,12123.81644,E,3.273,168.72,130517,,,A*6C

1494650962.29926276,$GPRMC,044839.00,A,3110.63117,N,12123.81672,E,3.069,169.06,130517,,,A*61

1494650963.30085659,$GPRMC,044840.00,A,3110.63023,N,12123.81681,E,2.910,169.42,130517,,,A*63

1494650964.30011463,$GPRMC,044841.00,A,3110.62941,N,12123.81701,E,2.826,169.99,130517,,,A*65

1494650965.30229282,$GPRMC,044842.00,A,3110.62814,N,12123.81714,E,2.857,170.64,130517,,,A*6F

1494650966.30055499,$GPRMC,044843.00,A,3110.62697,N,12123.81727,E,2.868,171.32,130517,,,A*65

1494650967.3030858,$GPRMC,044844.00,A,3110.62549,N,12123.81750,E,3.149,171.83,130517,,,A*63

1494650968.30108094,$GPRMC,044845.00,A,3110.62387,N,12123.81793,E,3.231,172.33,130517,,,A*6D

1494650969.30102801,$GPRMC,044846.00,A,3110.62234,N,12123.81858,E,3.330,172.31,130517,,,A*6D

1494650970.30027843,$GPRMC,044847.00,A,3110.62084,N,12123.81904,E,3.223,172.27,130517,,,A*69

1494650971.30217004,$GPRMC,044848.00,A,3110.61944,N,12123.81939,E,3.237,172.29,130517,,,A*65

1494650972.30338573,$GPRMC,044849.00,A,3110.61826,N,12123.81965,E,3.071,172.48,130517,,,A*6F

1494650973.30029082,$GPRMC,044850.00,A,3110.61777,N,12123.81968,E,2.590,172.73,130517,,,A*62

1494650974.29964304,$GPRMC,044851.00,A,3110.61711,N,12123.81969,E,2.092,,130517,,,A*7B

1494650975.30313945,$GPRMC,044852.00,A,3110.61737,N,12123.81974,E,0.938,164.49,130517,,,A*6B

1494650976.30220652,$GPRMC,044853.00,A,3110.61727,N,12123.81950,E,0.621,159.86,130517,,,A*67

1494650977.30044198,$GPRMC,044854.00,A,3110.61728,N,12123.81932,E,0.412,158.24,130517,,,A*60

1494650978.30277324,$GPRMC,044855.00,A,3110.61749,N,12123.81898,E,0.081,,130517,,,A*7D

1494650979.29994011,$GPRMC,044856.00,A,3110.61765,N,12123.81894,E,0.049,,130517,,,A*78

1494650980.30079126,$GPRMC,044857.00,A,3110.61784,N,12123.81878,E,0.027,,130517,,,A*7C

1494650981.30081224,$GPRMC,044858.00,A,3110.61793,N,12123.81867,E,0.002,,130517,,,A*7C

1494650982.293993,$GPRMC,044859.00,A,3110.61807,N,12123.81846,E,0.056,,130517,,,A*7D

1494650983.30165219,$GPRMC,044900.00,A,3110.61813,N,12123.81820,E,0.083,,130517,,,A*7D

1494650984.29773712,$GPRMC,044901.00,A,3110.61818,N,12123.81805,E,0.017,,130517,,,A*7D

1494650985.30202866,$GPRMC,044902.00,A,3110.61825,N,12123.81806,E,0.041,,130517,,,A*70

1494650986.31168675,$GPRMC,044903.00,A,3110.61829,N,12123.81811,E,0.006,,130517,,,A*78

1494650987.30492663,$GPRMC,044904.00,A,3110.61836,N,12123.81810,E,0.299,,130517,,,A*74

1494650988.29835582,$GPRMC,044905.00,A,3110.61837,N,12123.81813,E,0.088,,130517,,,A*75

1494650989.30109549,$GPRMC,044906.00,A,3110.61834,N,12123.81812,E,0.065,,130517,,,A*77

1494650990.29999685,$GPRMC,044907.00,A,3110.61822,N,12123.81815,E,0.009,,130517,,,A*7C

1494650991.30202389,$GPRMC,044908.00,A,3110.61812,N,12123.81807,E,0.022,,130517,,,A*7A

1494650992.29942036,$GPRMC,044909.00,A,3110.61819,N,12123.81802,E,0.024,,130517,,,A*73

1494650993.30321789,$GPRMC,044910.00,A,3110.61822,N,12123.81788,E,0.026,,130517,,,A*7C

1494650994.30147243,$GPRMC,044911.00,A,3110.61832,N,12123.81768,E,0.086,,130517,,,A*78

1494650995.30218768,$GPRMC,044912.00,A,3110.61845,N,12123.81742,E,0.092,,130517,,,A*76

1494650996.30161166,$GPRMC,044913.00,A,3110.61864,N,12123.81709,E,0.040,,130517,,,A*74

1494650997.30128145,$GPRMC,044914.00,A,3110.61879,N,12123.81675,E,0.034,,130517,,,A*76

1494650998.29730129,$GPRMC,044915.00,A,3110.61897,N,12123.81644,E,0.051,,130517,,,A*76

1494650999.30176687,$GPRMC,044916.00,A,3110.61906,N,12123.81626,E,0.032,,130517,,,A*7D

1494651000.30135441,$GPRMC,044917.00,A,3110.61907,N,12123.81611,E,0.007,,130517,,,A*7F

1494651001.30118108,$GPRMC,044918.00,A,3110.61903,N,12123.81601,E,0.027,,130517,,,A*77

1494651002.30162311,$GPRMC,044919.00,A,3110.61900,N,12123.81591,E,0.048,,130517,,,A*76

1494651003.3011055,$GPRMC,044920.00,A,3110.61900,N,12123.81584,E,0.026,,130517,,,A*70

1494651004.30120707,$GPRMC,044921.00,A,3110.61902,N,12123.81578,E,0.048,,130517,,,A*78

1494651005.30110884,$GPRMC,044922.00,A,3110.61906,N,12123.81577,E,0.031,,130517,,,A*7E

1494651006.30261588,$GPRMC,044923.00,A,3110.61911,N,12123.81576,E,0.018,,130517,,,A*73

1494651007.30004954,$GPRMC,044924.00,A,3110.61871,N,12123.81612,E,0.025,,130517,,,A*7C

1494651008.30092859,$GPRMC,044925.00,A,3110.61836,N,12123.81644,E,0.061,,130517,,,A*7D

1494651009.3015399,$GPRMC,044926.00,A,3110.61808,N,12123.81668,E,0.032,,130517,,,A*7B

1494651010.29906535,$GPRMC,044927.00,A,3110.61784,N,12123.81689,E,0.018,,130517,,,A*76

1494651011.30038667,$GPRMC,044928.00,A,3110.61803,N,12123.81681,E,0.057,,130517,,,A*7A

1494651012.29906487,$GPRMC,044929.00,A,3110.61819,N,12123.81673,E,0.059,,130517,,,A*73

1494651013.30004835,$GPRMC,044930.00,A,3110.61822,N,12123.81678,E,0.027,,130517,,,A*71

1494651014.30200648,$GPRMC,044931.00,A,3110.61812,N,12123.81700,E,0.059,,130517,,,A*74

1494651015.29885268,$GPRMC,044932.00,A,3110.61823,N,12123.81707,E,0.068,,130517,,,A*70

1494651016.30151343,$GPRMC,044933.00,A,3110.61823,N,12123.81711,E,0.049,,130517,,,A*75

1494651017.3008492,$GPRMC,044934.00,A,3110.61815,N,12123.81722,E,0.030,,130517,,,A*79

1494651018.29809403,$GPRMC,044935.00,A,3110.61825,N,12123.81718,E,0.016,,130517,,,A*76

1494651019.29823375,$GPRMC,044936.00,A,3110.61818,N,12123.81734,E,0.035,,130517,,,A*74

1494651020.29686689,$GPRMC,044937.00,A,3110.61823,N,12123.81745,E,0.022,,130517,,,A*7D

1494651021.29980993,$GPRMC,044938.00,A,3110.61807,N,12123.81766,E,0.022,,130517,,,A*75

1494651022.30072117,$GPRMC,044939.00,A,3110.61807,N,12123.81776,E,0.050,,130517,,,A*70

1494651023.30412722,$GPRMC,044940.00,A,3110.61791,N,12123.81792,E,0.206,,130517,,,A*75

1494651024.29961467,$GPRMC,044941.00,A,3110.61786,N,12123.81803,E,0.089,,130517,,,A*70

1494651025.30158973,$GPRMC,044942.00,A,3110.61761,N,12123.81830,E,0.034,,130517,,,A*7C

1494651026.30102372,$GPRMC,044943.00,A,3110.61755,N,12123.81845,E,0.020,,130517,,,A*7D

1494651027.30121064,$GPRMC,044944.00,A,3110.61732,N,12123.81865,E,0.541,,130517,,,A*7B

1494651028.30291653,$GPRMC,044945.00,A,3110.61717,N,12123.81862,E,1.014,,130517,,,A*7E

1494651029.29954743,$GPRMC,044946.00,A,3110.61679,N,12123.81883,E,1.080,,130517,,,A*76

1494651030.29812646,$GPRMC,044947.00,A,3110.61611,N,12123.81943,E,2.148,162.24,130517,,,A*6F

1494651031.29904222,$GPRMC,044948.00,A,3110.61563,N,12123.81969,E,2.046,164.00,130517,,,A*61

1494651032.29915237,$GPRMC,044949.00,A,3110.61474,N,12123.82025,E,2.515,166.41,130517,,,A*61

1494651033.29993296,$GPRMC,044950.00,A,3110.61416,N,12123.82052,E,2.685,167.31,130517,,,A*61

1494651034.29797173,$GPRMC,044951.00,A,3110.61358,N,12123.82069,E,2.499,167.77,130517,,,A*68

1494651035.30166054,$GPRMC,044952.00,A,3110.61289,N,12123.82110,E,2.349,167.45,130517,,,A*62

1494651036.2976017,$GPRMC,044953.00,A,3110.61244,N,12123.82109,E,2.252,167.18,130517,,,A*69

1494651037.30002236,$GPRMC,044954.00,A,3110.61208,N,12123.82101,E,2.000,166.38,130517,,,A*68

1494651038.30181694,$GPRMC,044955.00,A,3110.61178,N,12123.82094,E,1.858,166.15,130517,,,A*69

1494651039.2967248,$GPRMC,044956.00,A,3110.61147,N,12123.82106,E,1.938,,130517,,,A*70

1494651040.29947853,$GPRMC,044957.00,A,3110.61095,N,12123.82184,E,2.079,165.09,130517,,,A*6F

1494651041.2980516,$GPRMC,044958.00,A,3110.61087,N,12123.82268,E,2.635,162.33,130517,,,A*62

1494651042.30073643,$GPRMC,044959.00,A,3110.61079,N,12123.82401,E,3.461,151.70,130517,,,A*6E

1494651043.29807734,$GPRMC,045000.00,A,3110.61082,N,12123.82512,E,3.773,143.06,130517,,,A*6F

1494651044.30003572,$GPRMC,045001.00,A,3110.61083,N,12123.82649,E,4.124,134.67,130517,,,A*66

1494651045.30207753,$GPRMC,045002.00,A,3110.61148,N,12123.82760,E,4.056,128.51,130517,,,A*65

1494651046.30999851,$GPRMC,045003.00,A,3110.61171,N,12123.82912,E,4.255,123.24,130517,,,A*6D

1494651047.30721641,$GPRMC,045004.00,A,3110.61260,N,12123.83016,E,4.151,117.70,130517,,,A*64

1494651048.30438256,$GPRMC,045005.00,A,3110.61352,N,12123.83122,E,4.108,112.27,130517,,,A*68

1494651049.30274248,$GPRMC,045006.00,A,3110.61388,N,12123.83270,E,4.136,107.00,130517,,,A*64

1494651050.30405617,$GPRMC,045007.00,A,3110.61440,N,12123.83398,E,4.164,99.66,130517,,,A*50

1494651051.30121469,$GPRMC,045008.00,A,3110.61487,N,12123.83538,E,4.140,90.17,130517,,,A*51

1494651052.30089593,$GPRMC,045009.00,A,3110.61526,N,12123.83679,E,4.174,86.27,130517,,,A*5F

1494651053.30079389,$GPRMC,045010.00,A,3110.61591,N,12123.83801,E,4.440,84.12,130517,,,A*5C

1494651054.30130625,$GPRMC,045011.00,A,3110.61625,N,12123.83935,E,3.998,82.94,130517,,,A*50

1494651055.30171871,$GPRMC,045012.00,A,3110.61641,N,12123.84084,E,4.018,82.28,130517,,,A*54

1494651056.30244827,$GPRMC,045013.00,A,3110.61689,N,12123.84199,E,3.801,81.76,130517,,,A*53

1494651057.30277681,$GPRMC,045014.00,A,3110.61766,N,12123.84292,E,3.964,80.65,130517,,,A*5D

1494651058.30216742,$GPRMC,045015.00,A,3110.61775,N,12123.84439,E,4.247,79.57,130517,,,A*53

1494651059.30573916,$GPRMC,045016.00,A,3110.61836,N,12123.84557,E,4.001,78.36,130517,,,A*57

1494651060.3039248,$GPRMC,045017.00,A,3110.61851,N,12123.84704,E,3.570,77.65,130517,,,A*5E

1494651061.30449414,$GPRMC,045018.00,A,3110.61912,N,12123.84826,E,3.619,76.77,130517,,,A*56

1494651062.30552387,$GPRMC,045019.00,A,3110.61988,N,12123.84925,E,3.666,75.46,130517,,,A*5F

1494651063.30447721,$GPRMC,045020.00,A,3110.61974,N,12123.85067,E,3.724,74.70,130517,,,A*5B

1494651064.30277967,$GPRMC,045021.00,A,3110.62047,N,12123.85173,E,3.682,73.71,130517,,,A*5F

1494651065.30164528,$GPRMC,045022.00,A,3110.62124,N,12123.85275,E,3.637,72.68,130517,,,A*5A

1494651066.29874182,$GPRMC,045023.00,A,3110.62145,N,12123.85407,E,3.526,71.79,130517,,,A*5F

1494651067.3034308,$GPRMC,045024.00,A,3110.62164,N,12123.85542,E,3.633,70.96,130517,,,A*5C

1494651068.3022449,$GPRMC,045025.00,A,3110.62149,N,12123.85691,E,3.830,71.20,130517,,,A*5E

1494651069.30598402,$GPRMC,045026.00,A,3110.62172,N,12123.85825,E,3.919,70.71,130517,,,A*5B

1494651070.30653477,$GPRMC,045027.00,A,3110.62210,N,12123.85953,E,3.989,69.95,130517,,,A*56

1494651071.30569673,$GPRMC,045028.00,A,3110.62263,N,12123.86069,E,3.920,68.90,130517,,,A*59

1494651072.30383062,$GPRMC,045029.00,A,3110.62297,N,12123.86185,E,3.748,68.20,130517,,,A*5B

1494651073.30509925,$GPRMC,045030.00,A,3110.62325,N,12123.86308,E,3.942,67.63,130517,,,A*50

1494651074.30602956,$GPRMC,045031.00,A,3110.62394,N,12123.86411,E,3.970,66.24,130517,,,A*57

1494651075.30260277,$GPRMC,045032.00,A,3110.62395,N,12123.86528,E,3.220,66.09,130517,,,A*5F

1494651076.30039263,$GPRMC,045033.00,A,3110.62368,N,12123.86678,E,3.252,66.84,130517,,,A*5A

1494651077.30292487,$GPRMC,045034.00,A,3110.62314,N,12123.86847,E,3.372,68.41,130517,,,A*50

1494651078.30072498,$GPRMC,045035.00,A,3110.62273,N,12123.87008,E,3.586,69.85,130517,,,A*57

1494651079.30297303,$GPRMC,045036.00,A,3110.62259,N,12123.87146,E,3.534,71.03,130517,,,A*59

1494651080.30251956,$GPRMC,045037.00,A,3110.62266,N,12123.87278,E,3.592,71.96,130517,,,A*5A

1494651081.30133224,$GPRMC,045038.00,A,3110.62268,N,12123.87404,E,3.506,72.94,130517,,,A*5A

1494651082.30169988,$GPRMC,045039.00,A,3110.62292,N,12123.87526,E,3.490,73.29,130517,,,A*56

1494651083.30273151,$GPRMC,045040.00,A,3110.62300,N,12123.87642,E,3.548,73.99,130517,,,A*5C

1494651084.29979825,$GPRMC,045041.00,A,3110.62328,N,12123.87768,E,3.425,74.32,130517,,,A*52

1494651085.30302668,$GPRMC,045042.00,A,3110.62373,N,12123.87886,E,3.358,74.18,130517,,,A*55

1494651086.30280852,$GPRMC,045043.00,A,3110.62421,N,12123.88016,E,3.730,73.52,130517,,,A*59

1494651087.30388594,$GPRMC,045044.00,A,3110.62471,N,12123.88137,E,4.045,72.51,130517,,,A*59

1494651088.30228257,$GPRMC,045045.00,A,3110.62514,N,12123.88254,E,3.753,71.87,130517,,,A*53

1494651089.3051095,$GPRMC,045046.00,A,3110.62565,N,12123.88385,E,3.819,71.09,130517,,,A*5C

1494651090.30260301,$GPRMC,045047.00,A,3110.62639,N,12123.88503,E,4.126,69.06,130517,,,A*5B

1494651091.30484319,$GPRMC,045048.00,A,3110.62677,N,12123.88620,E,4.184,67.41,130517,,,A*59

1494651092.29968786,$GPRMC,045049.00,A,3110.62718,N,12123.88744,E,4.087,66.72,130517,,,A*50

1494651093.30126739,$GPRMC,045050.00,A,3110.62765,N,12123.88848,E,3.634,65.80,130517,,,A*56

1494651094.30059385,$GPRMC,045051.00,A,3110.62810,N,12123.88967,E,3.840,65.00,130517,,,A*53

1494651095.30488873,$GPRMC,045052.00,A,3110.62828,N,12123.89108,E,3.883,64.76,130517,,,A*54

1494651096.30040979,$GPRMC,045053.00,A,3110.62862,N,12123.89237,E,3.424,64.53,130517,,,A*52

1494651097.30309701,$GPRMC,045054.00,A,3110.62865,N,12123.89396,E,3.528,65.51,130517,,,A*56

1494651098.30166054,$GPRMC,045055.00,A,3110.62862,N,12123.89547,E,3.351,66.82,130517,,,A*5F

1494651099.30336404,$GPRMC,045056.00,A,3110.62877,N,12123.89695,E,4.069,67.68,130517,,,A*5E

1494651100.299927,$GPRMC,045057.00,A,3110.62860,N,12123.89843,E,3.186,67.77,130517,,,A*55

1494651101.30334663,$GPRMC,045058.00,A,3110.62874,N,12123.89997,E,2.736,67.29,130517,,,A*50

1494651102.30105472,$GPRMC,045059.00,A,3110.62920,N,12123.90101,E,2.877,66.95,130517,,,A*52

1494651103.30418706,$GPRMC,045100.00,A,3110.62968,N,12123.90251,E,3.125,66.26,130517,,,A*52

1494651104.3046937,$GPRMC,045101.00,A,3110.63012,N,12123.90358,E,3.314,65.89,130517,,,A*58

1494651105.30358744,$GPRMC,045102.00,A,3110.63109,N,12123.90497,E,3.938,64.47,130517,,,A*53

1494651106.3128736,$GPRMC,045103.00,A,3110.63219,N,12123.90610,E,3.790,61.16,130517,,,A*50

1494651107.3033793,$GPRMC,045104.00,A,3110.63250,N,12123.90743,E,4.103,58.64,130517,,,A*59

1494651108.30227041,$GPRMC,045105.00,A,3110.63307,N,12123.90856,E,4.238,54.84,130517,,,A*59

1494651109.30468774,$GPRMC,045106.00,A,3110.63342,N,12123.90970,E,3.604,54.66,130517,,,A*5E

1494651110.30316782,$GPRMC,045107.00,A,3110.63352,N,12123.91085,E,3.262,55.17,130517,,,A*5F

1494651111.30044413,$GPRMC,045108.00,A,3110.63411,N,12123.91163,E,3.201,51.88,130517,,,A*5E

1494651112.3026526,$GPRMC,045109.00,A,3110.63473,N,12123.91210,E,3.311,47.48,130517,,,D*52

1494651113.30326009,$GPRMC,045110.00,A,3110.63551,N,12123.91225,E,3.191,43.34,130517,,,D*58

1494651114.3044734,$GPRMC,045111.00,A,3110.63611,N,12123.91219,E,2.563,40.27,130517,,,D*58

1494651115.30169749,$GPRMC,045112.00,A,3110.63636,N,12123.91211,E,2.077,,130517,,,D*79

1494651116.30140376,$GPRMC,045113.00,A,3110.63616,N,12123.91183,E,1.610,,130517,,,D*76

1494651117.30278444,$GPRMC,045114.00,A,3110.63669,N,12123.91154,E,1.541,,130517,,,D*74

1494651118.30503273,$GPRMC,045115.00,A,3110.63659,N,12123.91145,E,1.173,,130517,,,D*73

1494651119.30068612,$GPRMC,045116.00,A,3110.63690,N,12123.91177,E,1.270,,130517,,,D*74

1494651120.30124545,$GPRMC,045117.00,A,3110.63760,N,12123.91231,E,1.888,,130517,,,D*77

1494651121.30062199,$GPRMC,045118.00,A,3110.63845,N,12123.91245,E,2.232,,130517,,,D*7B

1494651122.2986412,$GPRMC,045119.00,A,3110.63901,N,12123.91267,E,2.151,37.38,130517,,,D*5C

1494651123.30171394,$GPRMC,045120.00,A,3110.64008,N,12123.91283,E,2.482,34.00,130517,,,D*58

1494651124.30082726,$GPRMC,045121.00,A,3110.64091,N,12123.91317,E,2.465,31.88,130517,,,D*59

1494651125.29953575,$GPRMC,045122.00,A,3110.64230,N,12123.91281,E,2.922,25.04,130517,,,D*52

1494651126.29917455,$GPRMC,045123.00,A,3110.64320,N,12123.91284,E,2.817,21.61,130517,,,D*56

1494651127.29682541,$GPRMC,045124.00,A,3110.64483,N,12123.91255,E,3.179,17.50,130517,,,D*54

1494651128.29421997,$GPRMC,045125.00,A,3110.64617,N,12123.91224,E,3.491,13.03,130517,,,A*58

1494651129.29785013,$GPRMC,045126.00,A,3110.64732,N,12123.91173,E,3.624,8.94,130517,,,A*64

1494651130.29577684,$GPRMC,045127.00,A,3110.64832,N,12123.91140,E,3.352,6.44,130517,,,A*6D

1494651131.29760456,$GPRMC,045128.00,A,3110.64900,N,12123.91130,E,3.010,5.07,130517,,,A*64

1494651132.29887533,$GPRMC,045129.00,A,3110.64987,N,12123.91092,E,3.050,3.06,130517,,,A*60

1494651133.29907751,$GPRMC,045130.00,A,3110.65071,N,12123.91074,E,3.165,1.42,130517,,,A*64

1494651134.29682088,$GPRMC,045131.00,A,3110.65190,N,12123.91037,E,3.264,359.87,130517,,,A*69

1494651135.29796076,$GPRMC,045132.00,A,3110.65272,N,12123.91023,E,3.008,359.00,130517,,,A*67

1494651136.2982614,$GPRMC,045133.00,A,3110.65404,N,12123.90974,E,3.599,357.05,130517,,,A*6D

1494651137.29815221,$GPRMC,045134.00,A,3110.65536,N,12123.90953,E,3.965,355.38,130517,,,A*6C

1494651138.29860401,$GPRMC,045135.00,A,3110.65654,N,12123.90926,E,3.662,355.09,130517,,,A*62

1494651139.30043459,$GPRMC,045136.00,A,3110.65847,N,12123.90857,E,4.198,353.10,130517,,,A*61

1494651140.29835558,$GPRMC,045137.00,A,3110.65963,N,12123.90816,E,4.196,347.88,130517,,,A*68

1494651141.30068016,$GPRMC,045138.00,A,3110.66065,N,12123.90769,E,4.270,347.72,130517,,,A*62

1494651142.30073643,$GPRMC,045139.00,A,3110.66176,N,12123.90721,E,3.607,346.78,130517,,,A*64

1494651143.3035028,$GPRMC,045140.00,A,3110.66312,N,12123.90657,E,2.879,347.30,130517,,,A*61

1494651144.30134249,$GPRMC,045141.00,A,3110.66388,N,12123.90632,E,2.865,347.44,130517,,,A*6E

1494651145.30298662,$GPRMC,045142.00,A,3110.66471,N,12123.90593,E,2.995,347.56,130517,,,A*69

1494651146.29931974,$GPRMC,045143.00,A,3110.66562,N,12123.90551,E,3.056,347.66,130517,,,A*61

1494651147.30125952,$GPRMC,045144.00,A,3110.66683,N,12123.90502,E,3.052,348.03,130517,,,A*64

1494651148.30035591,$GPRMC,045145.00,A,3110.66784,N,12123.90457,E,2.993,348.18,130517,,,A*6D

1494651149.29907489,$GPRMC,045146.00,A,3110.66908,N,12123.90409,E,3.064,348.52,130517,,,A*61

1494651150.3005712,$GPRMC,045147.00,A,3110.67008,N,12123.90365,E,3.056,348.54,130517,,,A*62

1494651151.29976249,$GPRMC,045148.00,A,3110.67117,N,12123.90306,E,2.817,348.41,130517,,,A*6F

1494651152.30164003,$GPRMC,045149.00,A,3110.67238,N,12123.90259,E,2.844,348.23,130517,,,A*69

1494651153.30469346,$GPRMC,045150.00,A,3110.67339,N,12123.90212,E,2.790,348.12,130517,,,A*6A

1494651154.29918408,$GPRMC,045151.00,A,3110.67448,N,12123.90133,E,3.054,346.79,130517,,,A*67

1494651155.3026123,$GPRMC,045152.00,A,3110.67579,N,12123.90037,E,2.426,346.46,130517,,,A*6E

1494651156.29880595,$GPRMC,045153.00,A,3110.67708,N,12123.89938,E,2.154,346.29,130517,,,A*6C

1494651157.29939437,$GPRMC,045154.00,A,3110.67765,N,12123.89805,E,2.279,346.18,130517,,,A*61

1494651158.29928088,$GPRMC,045155.00,A,3110.67903,N,12123.89744,E,3.115,346.47,130517,,,A*66

1494651159.2998507,$GPRMC,045156.00,A,3110.68003,N,12123.89663,E,3.637,347.47,130517,,,A*61

1494651160.30046368,$GPRMC,045157.00,A,3110.68046,N,12123.89589,E,3.500,347.61,130517,,,A*65

1494651161.30296397,$GPRMC,045158.00,A,3110.68052,N,12123.89593,E,3.339,347.52,130517,,,A*68

1494651162.30069113,$GPRMC,045159.00,A,3110.68068,N,12123.89606,E,3.213,347.41,130517,,,A*64

1494651163.29911017,$GPRMC,045200.00,A,3110.68115,N,12123.89611,E,3.215,347.60,130517,,,A*63

1494651164.29771733,$GPRMC,045201.00,A,3110.68173,N,12123.89572,E,2.987,347.58,130517,,,A*6E

1494651165.3024025,$GPRMC,045202.00,A,3110.68224,N,12123.89558,E,2.902,346.94,130517,,,A*68

1494651166.311342,$GPRMC,045203.00,A,3110.68277,N,12123.89511,E,2.863,345.98,130517,,,A*6B

1494651167.29940367,$GPRMC,045204.00,A,3110.68312,N,12123.89439,E,2.326,344.69,130517,,,A*60

1494651168.30368519,$GPRMC,045205.00,A,3110.68386,N,12123.89405,E,2.359,343.85,130517,,,A*6E

1494651169.30282903,$GPRMC,045206.00,A,3110.68451,N,12123.89367,E,2.267,343.20,130517,,,A*60

1494651170.30124807,$GPRMC,045207.00,A,3110.68553,N,12123.89337,E,2.811,342.51,130517,,,A*6B

1494651171.29959083,$GPRMC,045208.00,A,3110.68662,N,12123.89313,E,2.987,341.85,130517,,,A*67

1494651172.30483389,$GPRMC,045209.00,A,3110.68740,N,12123.89277,E,2.903,340.88,130517,,,A*64

1494651173.3055923,$GPRMC,045210.00,A,3110.68827,N,12123.89243,E,2.747,340.09,130517,,,A*62

1494651174.30253935,$GPRMC,045211.00,A,3110.68957,N,12123.89219,E,3.132,339.93,130517,,,A*62

1494651175.30136967,$GPRMC,045212.00,A,3110.69088,N,12123.89198,E,2.986,339.69,130517,,,A*62

1494651176.30083656,$GPRMC,045213.00,A,3110.69209,N,12123.89176,E,2.950,339.88,130517,,,A*6C

1494651177.301687,$GPRMC,045214.00,A,3110.69344,N,12123.89136,E,3.474,341.73,130517,,,A*66

1494651178.29921746,$GPRMC,045215.00,A,3110.69416,N,12123.89109,E,2.829,342.38,130517,,,A*62

1494651179.30221009,$GPRMC,045216.00,A,3110.69511,N,12123.89104,E,2.628,343.11,130517,,,A*6F

1494651180.30246973,$GPRMC,045217.00,A,3110.69638,N,12123.89091,E,2.972,343.31,130517,,,A*69

1494651181.30013442,$GPRMC,045218.00,A,3110.69681,N,12123.89073,E,2.845,343.01,130517,,,A*6E

1494651182.29907656,$GPRMC,045219.00,A,3110.69759,N,12123.89035,E,3.100,342.18,130517,,,A*69

1494651183.30019903,$GPRMC,045220.00,A,3110.69873,N,12123.88993,E,3.033,341.41,130517,,,A*6E

1494651184.30027294,$GPRMC,045221.00,A,3110.69968,N,12123.88942,E,2.815,340.73,130517,,,A*65

1494651185.30155993,$GPRMC,045222.00,A,3110.70102,N,12123.88918,E,2.947,340.54,130517,,,A*66

1494651186.29861951,$GPRMC,045223.00,A,3110.70264,N,12123.88911,E,3.240,341.27,130517,,,A*65

1494651187.29844236,$GPRMC,045224.00,A,3110.70366,N,12123.88910,E,2.874,342.46,130517,,,A*68

1494651188.29945993,$GPRMC,045225.00,A,3110.70445,N,12123.88901,E,2.337,343.45,130517,,,A*61

1494651189.30049372,$GPRMC,045226.00,A,3110.70607,N,12123.88889,E,2.773,344.38,130517,,,A*6E

1494651190.29695368,$GPRMC,045227.00,A,3110.70820,N,12123.88889,E,3.692,345.96,130517,,,A*6E

1494651191.29844356,$GPRMC,045228.00,A,3110.71021,N,12123.88882,E,4.487,348.30,130517,,,A*62

1494651192.29796886,$GPRMC,045229.00,A,3110.71181,N,12123.88836,E,4.074,348.36,130517,,,A*69

1494651193.30296373,$GPRMC,045230.00,A,3110.71364,N,12123.88779,E,3.937,347.26,130517,,,A*6B

1494651194.30029941,$GPRMC,045231.00,A,3110.71539,N,12123.88759,E,3.833,346.41,130517,,,A*63

1494651195.29844713,$GPRMC,045232.00,A,3110.71713,N,12123.88739,E,4.703,342.54,130517,,,A*67

1494651196.29756379,$GPRMC,045233.00,A,3110.71857,N,12123.88698,E,4.441,339.57,130517,,,A*69

1494651197.30176044,$GPRMC,045234.00,A,3110.71974,N,12123.88623,E,4.305,336.83,130517,,,A*6F

1494651198.29996252,$GPRMC,045235.00,A,3110.72086,N,12123.88552,E,3.877,334.45,130517,,,A*6D

1494651199.30132961,$GPRMC,045236.00,A,3110.72181,N,12123.88454,E,4.041,332.32,130517,,,A*63

1494651200.30129457,$GPRMC,045237.00,A,3110.72292,N,12123.88346,E,4.167,330.79,130517,,,A*6F

1494651201.30085349,$GPRMC,045238.00,A,3110.72377,N,12123.88252,E,3.733,329.54,130517,,,A*69

1494651202.30023479,$GPRMC,045239.00,A,3110.72409,N,12123.88153,E,3.177,328.28,130517,,,A*68

1494651203.30070353,$GPRMC,045240.00,A,3110.72444,N,12123.88032,E,3.370,326.26,130517,,,A*6C

1494651204.29817247,$GPRMC,045241.00,A,3110.72471,N,12123.87924,E,3.418,323.91,130517,,,A*6A

1494651205.30029607,$GPRMC,045242.00,A,3110.72458,N,12123.87807,E,3.146,321.22,130517,,,A*66

1494651206.29973626,$GPRMC,045243.00,A,3110.72447,N,12123.87683,E,3.254,317.86,130517,,,A*60

1494651207.303267,$GPRMC,045244.00,A,3110.72439,N,12123.87572,E,3.434,314.06,130517,,,A*68

1494651208.30011463,$GPRMC,045245.00,A,3110.72419,N,12123.87500,E,2.697,311.78,130517,,,A*68

1494651209.30085731,$GPRMC,045246.00,A,3110.72428,N,12123.87431,E,2.112,,130517,,,A*72

1494651210.29947495,$GPRMC,045247.00,A,3110.72382,N,12123.87341,E,2.011,,130517,,,A*76

1494651211.29933405,$GPRMC,045248.00,A,3110.72373,N,12123.87241,E,2.233,,130517,,,A*74

1494651212.29838014,$GPRMC,045249.00,A,3110.72341,N,12123.87142,E,2.449,,130517,,,A*7F

1494651213.29992652,$GPRMC,045250.00,A,3110.72306,N,12123.87052,E,2.653,,130517,,,A*7D

1494651214.30128479,$GPRMC,045251.00,A,3110.72249,N,12123.86980,E,2.840,307.57,130517,,,A*65

1494651215.30270457,$GPRMC,045252.00,A,3110.72193,N,12123.86867,E,2.958,303.03,130517,,,A*67

1494651216.30012369,$GPRMC,045253.00,A,3110.72145,N,12123.86740,E,3.519,297.25,130517,,,A*67

1494651217.3006556,$GPRMC,045254.00,A,3110.72111,N,12123.86605,E,3.543,292.98,130517,,,A*6D

1494651218.30126762,$GPRMC,045255.00,A,3110.72088,N,12123.86485,E,3.038,289.93,130517,,,A*6F

1494651219.29862976,$GPRMC,045256.00,A,3110.72041,N,12123.86365,E,3.584,285.79,130517,,,A*6A

1494651220.29840279,$GPRMC,045257.00,A,3110.72028,N,12123.86230,E,3.578,282.93,130517,,,A*65

1494651221.2976675,$GPRMC,045258.00,A,3110.72024,N,12123.86111,E,3.283,280.97,130517,,,A*63

1494651222.2994287,$GPRMC,045259.00,A,3110.72016,N,12123.85981,E,3.272,278.88,130517,,,A*66

1494651223.30269313,$GPRMC,045300.00,A,3110.72036,N,12123.85879,E,2.689,277.94,130517,,,A*6C

1494651224.30114555,$GPRMC,045301.00,A,3110.72019,N,12123.85742,E,3.023,276.69,130517,,,A*63

1494651225.3025918,$GPRMC,045302.00,A,3110.72008,N,12123.85628,E,3.139,275.62,130517,,,A*6F

1494651226.3071053,$GPRMC,045303.00,A,3110.71985,N,12123.85500,E,3.251,274.38,130517,,,A*6B

1494651227.30466676,$GPRMC,045304.00,A,3110.71980,N,12123.85375,E,3.178,273.20,130517,,,A*6B

1494651228.29792237,$GPRMC,045305.00,A,3110.71940,N,12123.85214,E,3.783,271.54,130517,,,A*63

1494651229.30011535,$GPRMC,045306.00,A,3110.71910,N,12123.85095,E,3.523,270.07,130517,,,A*61

1494651230.2983427,$GPRMC,045307.00,A,3110.71897,N,12123.84944,E,3.453,268.57,130517,,,A*60

1494651231.29926848,$GPRMC,045308.00,A,3110.71890,N,12123.84793,E,3.344,267.34,130517,,,A*67

1494651232.3030622,$GPRMC,045309.00,A,3110.71868,N,12123.84654,E,3.451,266.38,130517,,,A*65

1494651233.29866433,$GPRMC,045310.00,A,3110.71843,N,12123.84530,E,3.102,,130517,,,A*71

1494651234.30049849,$GPRMC,045311.00,A,3110.71811,N,12123.84335,E,3.071,,130517,,,A*71

1494651235.3011992,$GPRMC,045312.00,A,3110.71725,N,12123.84176,E,3.443,,130517,,,A*7A

1494651236.30049038,$GPRMC,045313.00,A,3110.71664,N,12123.84051,E,2.956,,130517,,,A*73

1494651237.30115247,$GPRMC,045314.00,A,3110.71615,N,12123.83926,E,4.897,267.26,130517,,,A*6F

1494651238.29780054,$GPRMC,045315.00,A,3110.71605,N,12123.83776,E,3.179,,130517,,,A*73

1494651239.30236316,$GPRMC,045316.00,A,3110.71629,N,12123.83574,E,3.210,,130517,,,A*72

1494651240.30080986,$GPRMC,045317.00,A,3110.71591,N,12123.83489,E,2.175,,130517,,,A*71

1494651241.30008125,$GPRMC,045318.00,A,3110.71564,N,12123.83392,E,2.501,,130517,,,A*7E

1494651242.2993834,$GPRMC,045319.00,A,3110.71465,N,12123.83319,E,2.480,,130517,,,A*74

1494651243.29786539,$GPRMC,045320.00,A,3110.71388,N,12123.83198,E,2.388,,130517,,,A*7E

1494651244.30006623,$GPRMC,045321.00,A,3110.71347,N,12123.83081,E,2.622,,130517,,,A*70

1494651245.29925895,$GPRMC,045322.00,A,3110.71318,N,12123.82957,E,2.864,,130517,,,A*76

1494651246.30559397,$GPRMC,045323.00,A,3110.71301,N,12123.82838,E,3.144,,130517,,,A*7D

1494651247.30180383,$GPRMC,045324.00,A,3110.71300,N,12123.82694,E,3.420,,130517,,,A*74

1494651248.30244899,$GPRMC,045325.00,A,3110.71374,N,12123.82500,E,1.843,,130517,,,A*73

1494651249.2989223,$GPRMC,045326.00,A,3110.71304,N,12123.82408,E,2.568,,130517,,,A*79

1494651250.30085588,$GPRMC,045327.00,A,3110.71280,N,12123.82244,E,3.460,,130517,,,A*73

1494651251.30094528,$GPRMC,045328.00,A,3110.71240,N,12123.82149,E,1.867,,130517,,,A*77

1494651252.29875994,$GPRMC,045329.00,A,3110.71233,N,12123.82028,E,2.353,,130517,,,A*7B

1494651253.30084491,$GPRMC,045330.00,A,3110.71154,N,12123.81943,E,2.873,,130517,,,A*7F

1494651254.3003211,$GPRMC,045331.00,A,3110.71100,N,12123.81835,E,3.264,263.34,130517,,,A*6C

1494651255.30294967,$GPRMC,045332.00,A,3110.70993,N,12123.81748,E,3.492,255.98,130517,,,A*65

1494651256.29942489,$GPRMC,045333.00,A,3110.70815,N,12123.81738,E,3.579,244.63,130517,,,A*6C

1494651257.30121827,$GPRMC,045334.00,A,3110.70705,N,12123.81690,E,3.232,239.94,130517,,,A*6C

1494651258.29951692,$GPRMC,045335.00,A,3110.70606,N,12123.81615,E,3.210,237.44,130517,,,A*61

1494651259.29916501,$GPRMC,045336.00,A,3110.70505,N,12123.81589,E,2.907,235.18,130517,,,A*63

1494651260.30232143,$GPRMC,045337.00,A,3110.70435,N,12123.81509,E,3.066,233.14,130517,,,A*6D

1494651261.29982734,$GPRMC,045338.00,A,3110.70406,N,12123.81434,E,2.541,232.40,130517,,,A*6C

1494651262.3012805,$GPRMC,045339.00,A,3110.70313,N,12123.81396,E,2.180,,130517,,,A*71

1494651263.30514359,$GPRMC,045340.00,A,3110.70283,N,12123.81313,E,1.782,,130517,,,A*7D

1494651264.30485153,$GPRMC,045341.00,A,3110.70287,N,12123.81296,E,0.764,,130517,,,A*7D

1494651265.30580926,$GPRMC,045342.00,A,3110.70286,N,12123.81275,E,0.040,,130517,,,A*73

1494651266.30412197,$GPRMC,045343.00,A,3110.70302,N,12123.81251,E,0.107,,130517,,,A*7B

1494651267.30571771,$GPRMC,045344.00,A,3110.70339,N,12123.81242,E,0.054,,130517,,,A*71

1494651268.30573726,$GPRMC,045345.00,A,3110.70352,N,12123.81208,E,0.028,,130517,,,A*78

1494651269.30551052,$GPRMC,045346.00,A,3110.70331,N,12123.81195,E,0.062,,130517,,,A*77

1494651270.30062318,$GPRMC,045347.00,A,3110.70334,N,12123.81190,E,0.178,,130517,,,A*7C

1494651271.30152082,$GPRMC,045348.00,A,3110.70333,N,12123.81206,E,0.069,,130517,,,A*79

1494651272.3001163,$GPRMC,045349.00,A,3110.70345,N,12123.81212,E,0.045,,130517,,,A*72

1494651273.29911637,$GPRMC,045350.00,A,3110.70360,N,12123.81228,E,0.019,,130517,,,A*7D

1494651274.30127192,$GPRMC,045351.00,A,3110.70369,N,12123.81248,E,0.057,,130517,,,A*79

1494651275.30601406,$GPRMC,045352.00,A,3110.70380,N,12123.81269,E,0.202,,130517,,,A*7C

1494651276.30319619,$GPRMC,045353.00,A,3110.70388,N,12123.81288,E,0.060,,130517,,,A*7C

1494651277.30313158,$GPRMC,045354.00,A,3110.70399,N,12123.81302,E,0.003,,130517,,,A*7D

1494651278.30295467,$GPRMC,045355.00,A,3110.70410,N,12123.81312,E,0.023,,130517,,,A*79

1494651279.29836988,$GPRMC,045356.00,A,3110.70418,N,12123.81319,E,0.054,,130517,,,A*79

1494651280.3011663,$GPRMC,045357.00,A,3110.70436,N,12123.81313,E,0.059,,130517,,,A*73

1494651281.30418181,$GPRMC,045358.00,A,3110.70451,N,12123.81314,E,0.341,,130517,,,A*70

1494651282.30427814,$GPRMC,045359.00,A,3110.70450,N,12123.81319,E,0.139,,130517,,,A*70

1494651283.30218077,$GPRMC,045400.00,A,3110.70476,N,12123.81295,E,0.031,,130517,,,A*73

1494651284.30218291,$GPRMC,045401.00,A,3110.70487,N,12123.81288,E,0.025,,130517,,,A*75

1494651285.30033445,$GPRMC,045402.00,A,3110.70496,N,12123.81282,E,0.021,,130517,,,A*78

1494651286.30703545,$GPRMC,045403.00,A,3110.70501,N,12123.81277,E,0.050,,130517,,,A*7A

1494651287.3033812,$GPRMC,045404.00,A,3110.70504,N,12123.81281,E,0.046,,130517,,,A*76

1494651288.29925966,$GPRMC,045405.00,A,3110.70508,N,12123.81282,E,0.022,,130517,,,A*7A

1494651289.29758453,$GPRMC,045406.00,A,3110.70508,N,12123.81287,E,0.036,,130517,,,A*79

1494651290.2982831,$GPRMC,045407.00,A,3110.70506,N,12123.81295,E,0.016,,130517,,,A*77

1494651291.30117798,$GPRMC,045408.00,A,3110.70498,N,12123.81307,E,0.047,,130517,,,A*70

1494651292.29669356,$GPRMC,045409.00,A,3110.70483,N,12123.81322,E,0.010,,130517,,,A*7E

1494651293.30312872,$GPRMC,045410.00,A,3110.70495,N,12123.81315,E,0.052,,130517,,,A*73

1494651294.30392551,$GPRMC,045411.00,A,3110.70487,N,12123.81324,E,0.026,,130517,,,A*70

1494651295.30133367,$GPRMC,045412.00,A,3110.70489,N,12123.81327,E,0.044,,130517,,,A*7A

1494651296.3005991,$GPRMC,045413.00,A,3110.70495,N,12123.81325,E,0.033,,130517,,,A*74

1494651297.29931235,$GPRMC,045414.00,A,3110.70484,N,12123.81338,E,0.074,,130517,,,A*7C

1494651298.30110645,$GPRMC,045415.00,A,3110.70472,N,12123.81349,E,0.050,,130517,,,A*74

1494651299.29959702,$GPRMC,045416.00,A,3110.70455,N,12123.81360,E,0.266,240.56,130517,,,A*65

1494651300.30433083,$GPRMC,045417.00,A,3110.70453,N,12123.81361,E,0.043,,130517,,,A*7D

1494651301.30430508,$GPRMC,045418.00,A,3110.70426,N,12123.81379,E,0.067,,130517,,,A*7F

1494651302.30098128,$GPRMC,045419.00,A,3110.70400,N,12123.81399,E,0.107,,130517,,,A*73

1494651303.30172205,$GPRMC,045420.00,A,3110.70376,N,12123.81415,E,0.136,,130517,,,A*7E

1494651304.30077744,$GPRMC,045421.00,A,3110.70354,N,12123.81428,E,0.094,,130517,,,A*78

1494651305.30084825,$GPRMC,045422.00,A,3110.70338,N,12123.81435,E,0.044,,130517,,,A*70

1494651306.3007791,$GPRMC,045423.00,A,3110.70319,N,12123.81443,E,0.044,,130517,,,A*73

1494651307.30306768,$GPRMC,045424.00,A,3110.70304,N,12123.81451,E,0.043,,130517,,,A*7C

1494651308.30265212,$GPRMC,045425.00,A,3110.70292,N,12123.81458,E,0.043,,130517,,,A*7A

1494651309.30080485,$GPRMC,045426.00,A,3110.70297,N,12123.81445,E,0.023,,130517,,,A*76

1494651310.30416393,$GPRMC,045427.00,A,3110.70304,N,12123.81435,E,0.022,,130517,,,A*7A

1494651311.30248642,$GPRMC,045428.00,A,3110.70291,N,12123.81444,E,0.057,,130517,,,A*7C

1494651312.30671525,$GPRMC,045429.00,A,3110.70292,N,12123.81439,E,0.036,,130517,,,A*73

1494651313.30221677,$GPRMC,045430.00,A,3110.70297,N,12123.81431,E,0.017,,130517,,,A*75

1494651314.3007226,$GPRMC,045431.00,A,3110.70288,N,12123.81434,E,0.030,,130517,,,A*7A

1494651315.30040407,$GPRMC,045432.00,A,3110.70284,N,12123.81429,E,0.029,,130517,,,A*71

1494651316.2986412,$GPRMC,045433.00,A,3110.70289,N,12123.81418,E,0.037,,130517,,,A*70

1494651317.30016375,$GPRMC,045434.00,A,3110.70278,N,12123.81423,E,0.050,,130517,,,A*70

1494651318.29821301,$GPRMC,045435.00,A,3110.70273,N,12123.81422,E,0.018,,130517,,,A*77

1494651319.30009985,$GPRMC,045436.00,A,3110.70280,N,12123.81414,E,0.058,,130517,,,A*79

1494651320.30201721,$GPRMC,045437.00,A,3110.70276,N,12123.81414,E,0.085,,130517,,,A*71

1494651321.30203366,$GPRMC,045438.00,A,3110.70273,N,12123.81411,E,0.022,,130517,,,A*73

1494651322.30105567,$GPRMC,045439.00,A,3110.70270,N,12123.81408,E,0.042,,130517,,,A*7F

1494651323.30307102,$GPRMC,045440.00,A,3110.70275,N,12123.81399,E,0.018,,130517,,,A*74

1494651324.30010676,$GPRMC,045441.00,A,3110.70279,N,12123.81391,E,0.016,,130517,,,A*7F

1494651325.30119061,$GPRMC,045442.00,A,3110.70263,N,12123.81408,E,0.035,,130517,,,A*71

1494651326.30186844,$GPRMC,045443.00,A,3110.70263,N,12123.81409,E,0.036,,130517,,,A*72

1494651327.30264235,$GPRMC,045444.00,A,3110.70270,N,12123.81403,E,0.003,,130517,,,A*7B

1494651328.29909325,$GPRMC,045445.00,A,3110.70266,N,12123.81405,E,0.045,,130517,,,A*79

1494651329.30058742,$GPRMC,045446.00,A,3110.70266,N,12123.81410,E,0.039,,130517,,,A*75

1494651330.30004311,$GPRMC,045447.00,A,3110.70273,N,12123.81404,E,0.042,,130517,,,A*79

1494651331.30255961,$GPRMC,045448.00,A,3110.70280,N,12123.81400,E,0.064,,130517,,,A*7A

1494651332.29865336,$GPRMC,045449.00,A,3110.70279,N,12123.81397,E,0.053,,130517,,,A*70

1494651333.30129313,$GPRMC,045450.00,A,3110.70292,N,12123.81390,E,0.120,,130517,,,A*7F

1494651334.29864979,$GPRMC,045451.00,A,3110.70317,N,12123.81353,E,0.272,,130517,,,A*79

1494651335.30155063,$GPRMC,045452.00,A,3110.70324,N,12123.81316,E,0.815,,130517,,,A*70

1494651336.299685,$GPRMC,045453.00,A,3110.70342,N,12123.81253,E,1.558,,130517,,,A*74

1494651337.29933286,$GPRMC,045454.00,A,3110.70351,N,12123.81188,E,1.542,,130517,,,A*7F

1494651338.30011415,$GPRMC,045455.00,A,3110.70346,N,12123.81098,E,1.996,,130517,,,A*7D

1494651339.3001833,$GPRMC,045456.00,A,3110.70325,N,12123.81020,E,1.973,,130517,,,A*73

1494651340.2984395,$GPRMC,045457.00,A,3110.70253,N,12123.80907,E,3.566,242.05,130517,,,A*6A

1494651341.29929066,$GPRMC,045458.00,A,3110.70250,N,12123.80827,E,3.321,241.93,130517,,,A*6C

1494651342.2983377,$GPRMC,045459.00,A,3110.70210,N,12123.80719,E,3.340,241.54,130517,,,A*67

1494651343.29920197,$GPRMC,045500.00,A,3110.70141,N,12123.80602,E,3.966,238.23,130517,,,A*66

1494651344.29864836,$GPRMC,045501.00,A,3110.70075,N,12123.80533,E,3.770,234.36,130517,,,A*61

1494651345.30315471,$GPRMC,045502.00,A,3110.70005,N,12123.80471,E,3.729,229.21,130517,,,A*64

1494651346.30689311,$GPRMC,045503.00,A,3110.69930,N,12123.80401,E,3.656,224.91,130517,,,A*6A

1494651347.30249429,$GPRMC,045504.00,A,3110.69845,N,12123.80342,E,3.519,221.14,130517,,,A*6E

1494651348.29921484,$GPRMC,045505.00,A,3110.69781,N,12123.80301,E,3.311,218.06,130517,,,A*68

1494651349.29996705,$GPRMC,045506.00,A,3110.69748,N,12123.80238,E,3.115,214.93,130517,,,A*63

